{"type":"FeatureCollection","features":[{"type":"Feature","properties":{"organization":"Friends of the Rivers of Virginia","":"","state":"VA","region":"State","website":"http://www.forva.org","members":"0 - 499"},"geometry":{"type":"Point","coordinates":[-79.941426,37.27097]}},{"type":"Feature","properties":{"organization":"New York League of Conservation Voters","":"","state":"NY","region":"State","website":"http://nylcv.org/","members":"10000 - 49999"},"geometry":{"type":"Point","coordinates":[-74.011631,40.706281]}},{"type":"Feature","properties":{"organization":"Water Defense","":"","state":"NY","region":"State","website":"https://waterdefense.org/","members":"1000 - 4999"},"geometry":{"type":"Point","coordinates":[-74.828216,41.900366]}},{"type":"Feature","properties":{"organization":"West Virginia Rivers Coalition","":"","state":"WV","region":"State","website":"http://www.wvrivers.org/","members":"1000 - 4999"},"geometry":{"type":"Point","coordinates":[-81.598515,38.328228]}},{"type":"Feature","properties":{"organization":"Maryland League of Conservation Voters","":"","state":"MD","region":"State","website":"http://www.mdlcv.org","members":"10000 - 49999"},"geometry":{"type":"Point","coordinates":[-76.490139,38.979668]}},{"type":"Feature","properties":{"organization":"Scenic Virginia","":"","state":"VA","region":"State","website":"http://www.scenicvirginia.org","members":"Unknown or Non Applicable"},"geometry":{"type":"Point","coordinates":[-77.444202,37.542965]}},{"type":"Feature","properties":{"organization":"Maryland Environmental Health Network","":"","state":"MD","region":"State","website":"http://www.mdehn.org/","members":"Unknown or Non Applicable"},"geometry":{"type":"Point","coordinates":[-76.615487,39.299802]}},{"type":"Feature","properties":{"organization":"Citizen Shale","":"","state":"MD","region":"State","website":"http://citizenshale.org","members":"0 - 499"},"geometry":{"type":"Point","coordinates":[-79.406711,39.407874]}},{"type":"Feature","properties":{"organization":"Catskill Mountainkeeper","":"","state":"NY","region":"State","website":"http://www.catskillmountainkeeper.org","members":"1000 - 4999"},"geometry":{"type":"Point","coordinates":[-74.886274,41.808421]}},{"type":"Feature","properties":{"organization":"Wild Virginia","":"","state":"VA","region":"State","website":"http://www.wildvirginia.org","members":"0 - 499"},"geometry":{"type":"Point","coordinates":[-78.478546,38.029465]}},{"type":"Feature","properties":{"organization":"Environment Virginia","":"","state":"VA","region":"State","website":"http://www.environmentvirginia.org","members":"5000 - 9999"},"geometry":{"type":"Point","coordinates":[-77.435049,37.537271]}},{"type":"Feature","properties":{"organization":"Save Western Maryland","":"","state":"MD","region":"State","website":"http://www.savewesternmaryland.com/","members":"0 - 499"},"geometry":{"type":"Point","coordinates":[-79.425377,39.375842]}},{"type":"Feature","properties":{"organization":"Delaware Nature Society","":"","state":"DE","region":"State","website":"http://www.delawarenaturesociety.org/","members":"5000 - 9999"},"geometry":{"type":"Point","coordinates":[-75.660331,39.798101]}},{"type":"Feature","properties":{"organization":"Maryland Pesticide Network","":"","state":"MD","region":"State","website":"http://www.mdpestnet.org/","members":"0 - 499"},"geometry":{"type":"Point","coordinates":[-76.548988,39.008481]}},{"type":"Feature","properties":{"organization":"Environment Maryland","":"","state":"MD","region":"State","website":"http://www.environmentmaryland.org","members":"1000 - 4999"},"geometry":{"type":"Point","coordinates":[-76.615631,39.326723]}},{"type":"Feature","properties":{"organization":"Laurel Mountain Preservation Association","":"","state":"WV","region":"State","website":"http://www.laurelmountainwatershedassociation.org","members":"0 - 499"},"geometry":{"type":"Point","coordinates":[-79.810346,39.068437]}},{"type":"Feature","properties":{"organization":"Sierra Club - Virginia Chapter","":"","state":"VA","region":"State","website":"http://www.virginia.sierraclub.org","members":"10000 - 49999"},"geometry":{"type":"Point","coordinates":[-77.43915,37.541557]}},{"type":"Feature","properties":{"organization":"New York Council Trout Unlimited ","":"","state":"NY","region":"State","website":"http://www.nytu.org/","members":"1000 - 4999"},"geometry":{"type":"Point","coordinates":[-73.976249,41.90537]}},{"type":"Feature","properties":{"organization":"Virginia League of Conservation Voters","":"","state":"VA","region":"State","website":"http://www.valcv.org","members":"10000 - 49999"},"geometry":{"type":"Point","coordinates":[-77.439035,37.540128]}},{"type":"Feature","properties":{"organization":"Trash Free Maryland Alliance","":"","state":"MD","region":"State","website":"http://www.trashfreemaryland.org/","members":"0 - 499"},"geometry":{"type":"Point","coordinates":[-77.042655,38.686954]}},{"type":"Feature","properties":{"organization":"Lower Shore Land Trust","":"","state":"MD","region":"State","website":"http://www.lowershorelandtrust.org","members":"Unknown or Non Applicable"},"geometry":{"type":"Point","coordinates":[-75.219607,38.334179]}},{"type":"Feature","properties":{"organization":"Trout Unlimited","":"","state":"VA","region":"State","website":"http://www.tu.org","members":"1000 - 4999"},"geometry":{"type":"Point","coordinates":[-77.069066,38.896699]}},{"type":"Feature","properties":{"organization":"West Virginia Environmental Council","":"","state":"WV","region":"State","website":"http://www.wvecouncil.org","members":"Unknown or Non Applicable"},"geometry":{"type":"Point","coordinates":[-81.65908,38.14183]}},{"type":"Feature","properties":{"organization":"Virginia Conservation Network","":"","state":"VA","region":"State","website":"http://www.vcnva.org","members":"0 - 499"},"geometry":{"type":"Point","coordinates":[-77.440362,37.540363]}},{"type":"Feature","properties":{"organization":"Clean Air Council","":"","state":"PA","region":"State","website":"http://www.cleanair.org","members":"Unknown or Non Applicable"},"geometry":{"type":"Point","coordinates":[-75.171986,39.950722]}},{"type":"Feature","properties":{"organization":"Environment New York","":"","state":"NY","region":"State","website":"http://www.environmentnewyork.org","members":"5000 - 9999"},"geometry":{"type":"Point","coordinates":[-73.983839,40.751993]}},{"type":"Feature","properties":{"organization":"West Virginia Citizen Action Group","":"","state":"WV","region":"State","website":"http://www.wvcag.org","members":"Unknown or Non Applicable"},"geometry":{"type":"Point","coordinates":[-81.620461,38.345884]}},{"type":"Feature","properties":{"organization":"Maryland Nonprofits","":"","state":"MD","region":"State","website":"http://www.marylandnonprofits.org/Home.aspx","members":"Unknown or Non Applicable"},"geometry":{"type":"Point","coordinates":[-76.640309,39.332405]}},{"type":"Feature","properties":{"organization":"Conservation Voters of Pennsylvania","":"","state":"PA","region":"State","website":"http://conservationpa.org","members":"Unknown or Non Applicable"},"geometry":{"type":"Point","coordinates":[-75.174967,39.953186]}},{"type":"Feature","properties":{"organization":"Virginia Organizing","":"","state":"VA","region":"State","website":"http://virginia-organizing.org/","members":"10000 - 49999"},"geometry":{"type":"Point","coordinates":[-78.483898,38.038705]}},{"type":"Feature","properties":{"organization":"The Environmental Justice Center of Chestnut Hill United Church","":"","state":"PA","region":"State","website":"http://www.chestnuthillumc.org","members":"Unknown or Non Applicable"},"geometry":{"type":"Point","coordinates":[-75.211539,40.078036]}},{"type":"Feature","properties":{"organization":"Pennsylvania Council of Churches","":"","state":"PA","region":"State","website":"http://www.pachurches.org","members":"0 - 499"},"geometry":{"type":"Point","coordinates":[-76.819671,40.283356]}},{"type":"Feature","properties":{"organization":"Sierra Club - Maryland Chapter","":"","state":"MD","region":"State","website":"http://maryland.sierraclub.org/","members":"1000 - 4999"},"geometry":{"type":"Point","coordinates":[-76.938996,38.980398]}},{"type":"Feature","properties":{"organization":"Float Fishermen of Virginia","":"","state":"VA","region":"State","website":"http://www.floatfishermen.org","members":"Unknown or Non Applicable"},"geometry":{"type":"Point","coordinates":[-79.891977,36.99764]}},{"type":"Feature","properties":{"organization":"Delaware Center for Horticulture","":"","state":"DE","region":"State","website":"http://TheDCH.org","members":"1000 - 4999"},"geometry":{"type":"Point","coordinates":[-75.560408,39.758804]}},{"type":"Feature","properties":{"organization":"Maryland Citizens for Safe Energy","":"","state":"MD","region":"State","website":"http://www.marylandforsafeenergy.org","members":"0 - 499"},"geometry":{"type":"Point","coordinates":[-76.626623,39.368178]}},{"type":"Feature","properties":{"organization":"Protecting Our Waters","":"","state":"PA","region":"State","website":"http://protectingourwaters.com","members":"Unknown or Non Applicable"},"geometry":{"type":"Point","coordinates":[-75.217443,39.946232]}},{"type":"Feature","properties":{"organization":"Maryland Conservation Council","":"","state":"MD","region":"State","website":"http://www.mdconservationcouncil.org/","members":"0 - 499"},"geometry":{"type":"Point","coordinates":[-76.665012,39.360918]}},{"type":"Feature","properties":{"organization":"Environmental Advocates of New York","":"","state":"NY","region":"State","website":"http://www.eany.org/","members":"10000 - 49999"},"geometry":{"type":"Point","coordinates":[-73.764833,42.652231]}},{"type":"Feature","properties":{"organization":"Pennsylvania Council of Trout Unlimited","":"","state":"PA","region":"State","website":"http://www.patrout.org","members":"1000 - 4999"},"geometry":{"type":"Point","coordinates":[-77.778334,40.913394]}},{"type":"Feature","properties":{"organization":"Sierra Club - Pennsylvania Chapter","":"","state":"PA","region":"State","website":"http://pennsylvania.sierraclub.org/","members":"10000 - 49999"},"geometry":{"type":"Point","coordinates":[-77.008587,40.214256]}},{"type":"Feature","properties":{"organization":"PennEnvironment","":"","state":"PA","region":"State","website":"http://www.pennenvironment.org","members":"50000 +"},"geometry":{"type":"Point","coordinates":[-75.165276,39.949199]}},{"type":"Feature","properties":{"organization":"Virginia Aquarium & Marine Science Center","":"","state":"VA","region":"State","website":"http://www.virginiaaquarium.com","members":"5000 - 9999"},"geometry":{"type":"Point","coordinates":[-75.983436,36.821355]}},{"type":"Feature","properties":{"organization":"Lutheran Advocacy Ministry","":"","state":"PA","region":"State","website":"http://www.lutheranadvocacynm.org/","members":"5000 - 9999"},"geometry":{"type":"Point","coordinates":[-73.989308,40.741895]}},{"type":"Feature","properties":{"organization":"10,000 Friends of Pennsylvania","":"","state":"PA","region":"State","website":"http://10000friends.org/","members":"10000 - 49999"},"geometry":{"type":"Point","coordinates":[-76.8829619,40.2619774]}}]}