{"type":"FeatureCollection","features":[{"type":"Feature","properties":{"organization":"Back River Restoration Committee","":"","state":"MD","region":"Essex, MD","website":"http://www.savebackriver.org","members":"0 - 499"},"geometry":{"type":"Point","coordinates":[-76.440785,39.28409]}},{"type":"Feature","properties":{"organization":"Friends of Quincy Run ","":"","state":"MD","region":"Cheverly, MD","website":"https://www.friendsofquincyrun.org/","members":"0 - 499"},"geometry":{"type":"Point","coordinates":[-76.877861,38.914045]}},{"type":"Feature","properties":{"organization":"Mehoopany Creek Watershed Association","":"","state":"PA","region":"Mehoopany, PA","website":"http://www.mehoopanycreek.org/","members":"Unknown or Non Applicable"},"geometry":{"type":"Point","coordinates":[-76.060481,41.563409]}},{"type":"Feature","properties":{"organization":"Partnership for Smarter Growth","":"","state":"VA","region":"Richmond, VA","website":"http://www.psgrichmond.org/","members":"1000 - 4999"},"geometry":{"type":"Point","coordinates":[-77.419945,37.532324]}},{"type":"Feature","properties":{"organization":"Midshore Riverkeeper Conservancy","":"","state":"MD","region":"Easton, MD","website":"http://www.midshoreriverkeeper.org/","members":"1000 - 4999"},"geometry":{"type":"Point","coordinates":[-76.07523,38.775175]}},{"type":"Feature","properties":{"organization":"West/Rhode Riverkeeper","":"","state":"MD","region":"Shady Side, MD","website":"http://www.westrhoderiverkeeper.org/","members":"1000 - 4999"},"geometry":{"type":"Point","coordinates":[-76.508563,38.844187]}},{"type":"Feature","properties":{"organization":"Audubon Naturalist Society","":"","state":"MD","region":"Chevy Chase, MD","website":"http://www.audubonnaturalist.org","members":"5000 - 9999"},"geometry":{"type":"Point","coordinates":[-77.067332,39.003311]}},{"type":"Feature","properties":{"organization":"Friends of Frederick County","":"","state":"MD","region":"Frederick, MD","website":"http://www.friendsoffrederickcounty.org","members":"500 - 999"},"geometry":{"type":"Point","coordinates":[-77.410461,39.415241]}},{"type":"Feature","properties":{"organization":"Wicomico Environmental Trust","":"","state":"MD","region":"Salisbury, MD","website":"http://www.wicomicoenvironment.org/","members":"0 - 499"},"geometry":{"type":"Point","coordinates":[-75.569659,38.36911]}},{"type":"Feature","properties":{"organization":"Alice Ferguson Foundation","":"","state":"MD","region":"Accokeek, MD","website":"http://www.fergusonfoundation.org/","members":"Unknown or Non Applicable"},"geometry":{"type":"Point","coordinates":[-77.042655,38.686954]}},{"type":"Feature","properties":{"organization":"Friends of the Rivers of Virginia","":"","state":"VA","region":"Roanoke, VA","website":"http://www.forva.org","members":"0 - 499"},"geometry":{"type":"Point","coordinates":[-79.941426,37.27097]}},{"type":"Feature","properties":{"organization":"NeighborSpace of Baltimore County","":"","state":"MD","region":"Towson, MD","website":"http://www.neighborspacebaltimorecounty.org","members":"1000 - 4999"},"geometry":{"type":"Point","coordinates":[-76.604605,39.39792]}},{"type":"Feature","properties":{"organization":"Wetlands Watch","":"","state":"VA","region":"Norfolk, VA","website":"http://www.wetlandswatch.org/","members":"0 - 499"},"geometry":{"type":"Point","coordinates":[-76.285872,36.850768]}},{"type":"Feature","properties":{"organization":"Chesapeake Conservation Landscaping Council","":"","state":"MD","region":"Ridgely, MD","website":"http://www.chesapeakelandscape.org/","members":"Unknown or Non Applicable"},"geometry":{"type":"Point","coordinates":[-75.88825,38.965967]}},{"type":"Feature","properties":{"organization":"Susquehanna Greenway Partnership","":"","state":"PA","region":"Lewisburg, PA","website":"http://www.susquehannagreenway.org","members":"1000 - 4999"},"geometry":{"type":"Point","coordinates":[-76.867117,40.925413]}},{"type":"Feature","properties":{"organization":"New York League of Conservation Voters","":"","state":"NY","region":"New York, NY","website":"http://nylcv.org/","members":"10000 - 49999"},"geometry":{"type":"Point","coordinates":[-74.011631,40.706281]}},{"type":"Feature","properties":{"organization":"Friends of Dyke Marsh","":"","state":"VA","region":"Alexandria, VA","website":"http://www.fodm.org/","members":"0 - 499"},"geometry":{"type":"Point","coordinates":[-77.062202,38.770387]}},{"type":"Feature","properties":{"organization":"Otsego County Conservation Association","":"","state":"NY","region":"Cooperstown, NY","website":"http://occainfo.org/","members":"1000 - 4999"},"geometry":{"type":"Point","coordinates":[-74.902819,42.804424]}},{"type":"Feature","properties":{"organization":"Water Defense","":"","state":"NY","region":"Livingston Manor, NY","website":"https://waterdefense.org/","members":"1000 - 4999"},"geometry":{"type":"Point","coordinates":[-74.828216,41.900366]}},{"type":"Feature","properties":{"organization":"Growth Action Network of Anne Arundel County, Inc. ","":"","state":"MD","region":"Arnold, MD","website":"http://www.growthaction.net","members":"0 - 499"},"geometry":{"type":"Point","coordinates":[-76.522159,39.034948]}},{"type":"Feature","properties":{"organization":"Blue Water Baltimore","":"","state":"MD","region":"Baltimore, MD","website":"http://bluewaterbaltimore.org","members":"5000 - 9999"},"geometry":{"type":"Point","coordinates":[-76.523763,39.360853]}},{"type":"Feature","properties":{"organization":"Friends of the Bohemia","":"","state":"MD","region":"Chesapeake City, MD","website":"http://www.friendsofthebohemia.org/","members":"0 - 499"},"geometry":{"type":"Point","coordinates":[-75.841775,39.510346]}},{"type":"Feature","properties":{"organization":"Patuxent Tidewater Land Trust","":"","state":"MD","region":"Leonardtown, MD","website":"http://www.patuxent-tidewater.org","members":"0 - 499"},"geometry":{"type":"Point","coordinates":[-76.618165,38.239446]}},{"type":"Feature","properties":{"organization":"Pennsylvania Organization for Watersheds and Rivers","":"","state":"PA","region":"Luzerne, PA","website":"http://www.pawatersheds.org","members":"Unknown or Non Applicable"},"geometry":{"type":"Point","coordinates":[-75.896669,41.284251]}},{"type":"Feature","properties":{"organization":"Friends of Herring Run Parks","":"","state":"MD","region":"Baltimore, MD","website":"http://thefhrp.org/","members":"0 - 499"},"geometry":{"type":"Point","coordinates":[-76.569862,39.324158]}},{"type":"Feature","properties":{"organization":"Montgomery Countryside Alliance","":"","state":"MD","region":"Poolesville, MD","website":"http://mocoalliance.org/","members":"500 - 999"},"geometry":{"type":"Point","coordinates":[-77.416931,39.145939]}},{"type":"Feature","properties":{"organization":"Lancaster County Conservancy ","":"","state":"PA","region":"Lancaster, PA","website":"http://www.lancasterconservancy.org/","members":"1000 - 4999"},"geometry":{"type":"Point","coordinates":[-76.32364,40.036726]}},{"type":"Feature","properties":{"organization":"Chester River Association","":"","state":"MD","region":"Chestertown, MD","website":"http://www.chesterriverassociation.org","members":"1000 - 4999"},"geometry":{"type":"Point","coordinates":[-76.066572,39.209112]}},{"type":"Feature","properties":{"organization":"Upper Susquehanna Coalition","":"","state":"NY","region":"Owego, NY","website":"http://www.u-s-c.org/","members":"0 - 499"},"geometry":{"type":"Point","coordinates":[-76.267988,42.142961]}},{"type":"Feature","properties":{"organization":"West Virginia Rivers Coalition","":"","state":"WV","region":"Charleston, WV","website":"http://www.wvrivers.org/","members":"1000 - 4999"},"geometry":{"type":"Point","coordinates":[-81.598515,38.328228]}},{"type":"Feature","properties":{"organization":"Maryland League of Conservation Voters","":"","state":"MD","region":"Annapolis, MD","website":"http://www.mdlcv.org","members":"10000 - 49999"},"geometry":{"type":"Point","coordinates":[-76.490139,38.979668]}},{"type":"Feature","properties":{"organization":"Scenic Virginia","":"","state":"VA","region":"Richmond, VA","website":"http://www.scenicvirginia.org","members":"Unknown or Non Applicable"},"geometry":{"type":"Point","coordinates":[-77.444202,37.542965]}},{"type":"Feature","properties":{"organization":"Maryland Environmental Health Network","":"","state":"MD","region":"Baltimore, MD","website":"http://www.mdehn.org/","members":"Unknown or Non Applicable"},"geometry":{"type":"Point","coordinates":[-76.615487,39.299802]}},{"type":"Feature","properties":{"organization":"Citizens for a Fort Monroe National Park","":"","state":"VA","region":"Hampton, VA","website":"http://www.cfmnp.org/","members":"500 - 999"},"geometry":{"type":"Point","coordinates":[-76.345221,37.029868]}},{"type":"Feature","properties":{"organization":"Stewards of the Lower Susquehanna/Lower Susquehanna Riverkeeper","":"","state":"PA","region":"Wrightsville, PA","website":"http://www.lowersusquehannariverkeeper.com","members":"0 - 499"},"geometry":{"type":"Point","coordinates":[-76.490565,39.966893]}},{"type":"Feature","properties":{"organization":"Waterfront Partnership of Baltimore","":"","state":"MD","region":"Baltimore, MD","website":"http://waterfrontpartnership.org/","members":"Unknown or Non Applicable"},"geometry":{"type":"Point","coordinates":[-76.600501,39.28365]}},{"type":"Feature","properties":{"organization":"Queen Anne's Conservation Association","":"","state":"MD","region":"Centreville, MD","website":"http://www.qaca.org/","members":"Unknown or Non Applicable"},"geometry":{"type":"Point","coordinates":[-76.066333,39.041778]}},{"type":"Feature","properties":{"organization":"Elizabeth River Project","":"","state":"VA","region":"Portsmouth, VA","website":"http://www.elizabethriver.org","members":"1000 - 4999"},"geometry":{"type":"Point","coordinates":[-76.296215,36.836605]}},{"type":"Feature","properties":{"organization":"Baltimore Green Works","":"","state":"MD","region":"Baltimore, MD","website":"http://baltimoregreenworks.com/","members":"5000 - 9999"},"geometry":{"type":"Point","coordinates":[-76.605453,39.399618]}},{"type":"Feature","properties":{"organization":"Friends of Lower Beaverdam Creek","":"","state":"MD","region":"Cheverly , MD","website":"http://www.friendsoflowerbeaverdam.org/","members":"0 - 499"},"geometry":{"type":"Point","coordinates":[-76.944141,38.949808]}},{"type":"Feature","properties":{"organization":"Citizen Shale","":"","state":"MD","region":"Oakland, MD","website":"http://citizenshale.org","members":"0 - 499"},"geometry":{"type":"Point","coordinates":[-79.406711,39.407874]}},{"type":"Feature","properties":{"organization":"Friends of Cabin John Creek","":"","state":"MD","region":"Cabin John, MD","website":"http://www.cabinjohn.org/focjcw/","members":"0 - 499"},"geometry":{"type":"Point","coordinates":[-77.158034,38.975388]}},{"type":"Feature","properties":{"organization":"Richmond Audubon Society","":"","state":"VA","region":"Richmond, VA","website":"http://www.richmondaudubon.org/","members":"0 - 499"},"geometry":{"type":"Point","coordinates":[-77.439035,37.540128]}},{"type":"Feature","properties":{"organization":"Catskill Mountainkeeper","":"","state":"NY","region":"Youngsville, NY","website":"http://www.catskillmountainkeeper.org","members":"1000 - 4999"},"geometry":{"type":"Point","coordinates":[-74.886274,41.808421]}},{"type":"Feature","properties":{"organization":"Wild Virginia","":"","state":"VA","region":"Charlottesville, VA","website":"http://www.wildvirginia.org","members":"0 - 499"},"geometry":{"type":"Point","coordinates":[-78.478546,38.029465]}},{"type":"Feature","properties":{"organization":"Rivanna Conservation Alliance ","":"","state":"VA","region":"Charlottesville, VA","website":"http://www.rivannariver.org","members":"500 - 999"},"geometry":{"type":"Point","coordinates":[-78.506086,38.036345]}},{"type":"Feature","properties":{"organization":"Bethesda Green","":"","state":"MD","region":"Bethesda, MD","website":"http://bethesdagreen.org/","members":"10000 - 49999"},"geometry":{"type":"Point","coordinates":[-77.096931,38.990976]}},{"type":"Feature","properties":{"organization":"Shenandoah Valley Network","":"","state":"VA","region":"The Plains, VA","website":"http://www.svnva.org","members":"Unknown or Non Applicable"},"geometry":{"type":"Point","coordinates":[-77.747051,38.907337]}},{"type":"Feature","properties":{"organization":"Environment Virginia","":"","state":"VA","region":"Richmond, VA","website":"http://www.environmentvirginia.org","members":"5000 - 9999"},"geometry":{"type":"Point","coordinates":[-77.435049,37.537271]}},{"type":"Feature","properties":{"organization":"Citizens for a Better Eastern Shore","":"","state":"VA","region":"Eastville, VA","website":"http://www.cbes.org","members":"500 - 999"},"geometry":{"type":"Point","coordinates":[-75.945765,37.352636]}},{"type":"Feature","properties":{"organization":"Cecil Land Use Alliance","":"","state":"MD","region":"Rising Sun, MD","website":"http://cecillanduse.org/","members":"0 - 499"},"geometry":{"type":"Point","coordinates":[-76.01598,39.683758]}},{"type":"Feature","properties":{"organization":"Virginia Wilderness Committee","":"","state":"VA","region":"Lexington, VA","website":"http://www.vawilderness.org/","members":"0 - 499"},"geometry":{"type":"Point","coordinates":[-79.549751,37.867192]}},{"type":"Feature","properties":{"organization":"Chesapeake Wildlife Heritage","":"","state":"MD","region":"Easton, MD","website":"http://www.cheswildlife.org","members":"1000 - 4999"},"geometry":{"type":"Point","coordinates":[-76.076403,38.774209]}},{"type":"Feature","properties":{"organization":"St. Mary's River Watershed Association","":"","state":"MD","region":"St. Mary's City, MD","website":"http://www.smrwa.org","members":"500 - 999"},"geometry":{"type":"Point","coordinates":[-76.434317,38.18724]}},{"type":"Feature","properties":{"organization":"Save Western Maryland","":"","state":"MD","region":"Oakland, MD","website":"http://www.savewesternmaryland.com/","members":"0 - 499"},"geometry":{"type":"Point","coordinates":[-79.425377,39.375842]}},{"type":"Feature","properties":{"organization":"DC Environmental Network","":"","state":"DC","region":"Washington, DC","website":"http://www.dcen.net","members":"5000 - 9999"},"geometry":{"type":"Point","coordinates":[-77.034951,38.903974]}},{"type":"Feature","properties":{"organization":"South River Federation","":"","state":"MD","region":"Edgewater, MD","website":"http://www.southriverfederation.net","members":"500 - 999"},"geometry":{"type":"Point","coordinates":[-76.552408,38.955335]}},{"type":"Feature","properties":{"organization":"Citizens for Pennsylvania's Future","":"","state":"PA","region":"Harrisburg, PA","website":"http://www.pennfuture.org/","members":"Unknown or Non Applicable"},"geometry":{"type":"Point","coordinates":[-76.885275,40.26453]}},{"type":"Feature","properties":{"organization":"1000 Friends of Maryland","":"","state":"MD","region":"Baltimore, MD","website":"http://www.friendsofmd.org","members":"5000 - 9999"},"geometry":{"type":"Point","coordinates":[-76.613014,39.303874]}},{"type":"Feature","properties":{"organization":"Delaware Nature Society","":"","state":"DE","region":"Hockessin, DE","website":"http://www.delawarenaturesociety.org/","members":"5000 - 9999"},"geometry":{"type":"Point","coordinates":[-75.660331,39.798101]}},{"type":"Feature","properties":{"organization":"Gunpowder Riverkeeper","":"","state":"MD","region":"Monkton, MD","website":"http://www.gunpowderriverkeeper.org","members":"Unknown or Non Applicable"},"geometry":{"type":"Point","coordinates":[-76.663442,39.589231]}},{"type":"Feature","properties":{"organization":"Maryland Pesticide Network","":"","state":"MD","region":"Annapolis, MD","website":"http://www.mdpestnet.org/","members":"0 - 499"},"geometry":{"type":"Point","coordinates":[-76.548988,39.008481]}},{"type":"Feature","properties":{"organization":"Goose Creek Association","":"","state":"VA","region":"Middleburg, VA","website":"http://www.goosecreek.org/","members":"500 - 999"},"geometry":{"type":"Point","coordinates":[-77.735549,38.968721]}},{"type":"Feature","properties":{"organization":"Environmental Concern","":"","state":"MD","region":"Saint Michaels, MD","website":"http://www.wetland.org","members":"Unknown or Non Applicable"},"geometry":{"type":"Point","coordinates":[-76.224516,38.780263]}},{"type":"Feature","properties":{"organization":"Parks and People Foundation","":"","state":"MD","region":"Baltimore, MD","website":"http://parksandpeople.org/","members":"5000 - 9999"},"geometry":{"type":"Point","coordinates":[-76.629387,39.32228]}},{"type":"Feature","properties":{"organization":"Waterkeepeers Chesapeake","":"","state":"MD","region":"Takoma Park, MD","website":"http://www.waterkeeperschesapeake.com","members":"1000 - 4999"},"geometry":{"type":"Point","coordinates":[-77.01,38.979999]}},{"type":"Feature","properties":{"organization":"Little Falls Watershed Alliance","":"","state":"MD","region":"Chevy Chase, MD","website":"http://www.lfwa.org","members":"1000 - 4999"},"geometry":{"type":"Point","coordinates":[-77.100109,38.968221]}},{"type":"Feature","properties":{"organization":"Appalachian Voices","":"","state":"VA","region":"Charlottesville, VA","website":"http://appvoices.org/","members":"5000 - 9999"},"geometry":{"type":"Point","coordinates":[-78.474691,38.031063]}},{"type":"Feature","properties":{"organization":"Earth Forum of Howard County","":"","state":"MD","region":"Columbia, MD","website":"http://www.firstpreshc.org/earth-forum","members":"0 - 499"},"geometry":{"type":"Point","coordinates":[-76.834848,39.238111]}},{"type":"Feature","properties":{"organization":"Environment Maryland","":"","state":"MD","region":"Baltimore, MD","website":"http://www.environmentmaryland.org","members":"1000 - 4999"},"geometry":{"type":"Point","coordinates":[-76.615631,39.326723]}},{"type":"Feature","properties":{"organization":"Severn Riverkeeper","":"","state":"MD","region":"Annapolis, MD","website":"http://www.severnriver.org/","members":"500 - 999"},"geometry":{"type":"Point","coordinates":[-76.527415,39.013503]}},{"type":"Feature","properties":{"organization":"Susquehanna Heritage ","":"","state":"PA","region":"Wrightsville, PA","website":"http://www.susquehannaheritage.org/","members":"Unknown or Non Applicable"},"geometry":{"type":"Point","coordinates":[-76.496712,39.977627]}},{"type":"Feature","properties":{"organization":"Laurel Mountain Preservation Association","":"","state":"WV","region":"Montrose, WV","website":"http://www.laurelmountainwatershedassociation.org","members":"0 - 499"},"geometry":{"type":"Point","coordinates":[-79.810346,39.068437]}},{"type":"Feature","properties":{"organization":"Allegheny Highlands Alliance","":"","state":"WV","region":"Circleville, WV","website":"http://alleghenyhighlandsalliance.org/Our_Mission/","members":"0 - 499"},"geometry":{"type":"Point","coordinates":[-79.491906,38.671549]}},{"type":"Feature","properties":{"organization":"Friends of the Cacapon ","":"","state":"WV","region":"Great Cacapon, WV","website":"http://cacaponriver.org/","members":"Unknown or Non Applicable"},"geometry":{"type":"Point","coordinates":[-78.292509,39.620092]}},{"type":"Feature","properties":{"organization":"Lynnhaven River NOW","":"","state":"VA","region":"Virginia Beach, VA","website":"http://www.lynnhavenrivernow.org/","members":"5000 - 9999"},"geometry":{"type":"Point","coordinates":[-76.097987,36.903882]}},{"type":"Feature","properties":{"organization":"Sierra Club - Virginia Chapter","":"","state":"VA","region":"Richmond, VA","website":"http://www.virginia.sierraclub.org","members":"10000 - 49999"},"geometry":{"type":"Point","coordinates":[-77.43915,37.541557]}},{"type":"Feature","properties":{"organization":"New York Council Trout Unlimited ","":"","state":"NY","region":"Port Ewen, NY","website":"http://www.nytu.org/","members":"1000 - 4999"},"geometry":{"type":"Point","coordinates":[-73.976249,41.90537]}},{"type":"Feature","properties":{"organization":"Virginia League of Conservation Voters","":"","state":"VA","region":"Richmond, VA","website":"http://www.valcv.org","members":"10000 - 49999"},"geometry":{"type":"Point","coordinates":[-77.439035,37.540128]}},{"type":"Feature","properties":{"organization":"Back Creek Conservancy ","":"","state":"MD","region":"Annapolis, MD","website":"http://backcreekconservancy.org/bcc/","members":"0 - 499"},"geometry":{"type":"Point","coordinates":[-76.491009,38.935983]}},{"type":"Feature","properties":{"organization":"Trash Free Maryland Alliance","":"","state":"MD","region":"Accokeek, MD","website":"http://www.trashfreemaryland.org/","members":"0 - 499"},"geometry":{"type":"Point","coordinates":[-77.042655,38.686954]}},{"type":"Feature","properties":{"organization":"Lower Shore Land Trust","":"","state":"MD","region":"Berlin, MD","website":"http://www.lowershorelandtrust.org","members":"Unknown or Non Applicable"},"geometry":{"type":"Point","coordinates":[-75.219607,38.334179]}},{"type":"Feature","properties":{"organization":"Trout Unlimited","":"","state":"VA","region":"Arlington, VA","website":"http://www.tu.org","members":"1000 - 4999"},"geometry":{"type":"Point","coordinates":[-77.069066,38.896699]}},{"type":"Feature","properties":{"organization":"ClearWater Conservancy","":"","state":"PA","region":"State College, PA","website":"http://www.clearwaterconservancy.org/","members":"500 - 999"},"geometry":{"type":"Point","coordinates":[-77.921457,40.812089]}},{"type":"Feature","properties":{"organization":"West Virginia Environmental Council","":"","state":"WV","region":"Charleston, WV","website":"http://www.wvecouncil.org","members":"Unknown or Non Applicable"},"geometry":{"type":"Point","coordinates":[-81.65908,38.14183]}},{"type":"Feature","properties":{"organization":"Lower Susquehanna Heritage Greenway","":"","state":"MD","region":"Darlington, MD","website":"http://www.lshgreenway.org/","members":"1000 - 4999"},"geometry":{"type":"Point","coordinates":[-76.17836,39.655418]}},{"type":"Feature","properties":{"organization":"Eastern Pennsylvania Coalition for Abandoned Mine Reclamation ","":"","state":"PA","region":"Ashley, PA","website":"http://www.epcamr.org","members":"0 - 499"},"geometry":{"type":"Point","coordinates":[-75.903687,41.210369]}},{"type":"Feature","properties":{"organization":"Virginia Conservation Network","":"","state":"VA","region":"Richmond, VA","website":"http://www.vcnva.org","members":"0 - 499"},"geometry":{"type":"Point","coordinates":[-77.440362,37.540363]}},{"type":"Feature","properties":{"organization":"Virginia Eastern Shorekeeper ","":"","state":"VA","region":"Eastville, VA","website":"http://www.shorekeeper.org/","members":"1000 - 4999"},"geometry":{"type":"Point","coordinates":[-75.936077,37.349638]}},{"type":"Feature","properties":{"organization":"Clean Air Council","":"","state":"PA","region":"Philadelphia, PA","website":"http://www.cleanair.org","members":"Unknown or Non Applicable"},"geometry":{"type":"Point","coordinates":[-75.171986,39.950722]}},{"type":"Feature","properties":{"organization":"Paxton Creek Watershed and Education Association","":"","state":"PA","region":"Harrisburg, PA","website":"http://www.paxtoncreek.org/","members":"Unknown or Non Applicable"},"geometry":{"type":"Point","coordinates":[-77.008587,40.214256]}},{"type":"Feature","properties":{"organization":"Middle Susquehanna Riverkeeper","":"","state":"PA","region":"Lewisburg, PA","website":"http://www.middlesusquehannariverkeeper.org/","members":"Unknown or Non Applicable"},"geometry":{"type":"Point","coordinates":[-76.94126,40.956465]}},{"type":"Feature","properties":{"organization":"Environment New York","":"","state":"NY","region":"New York, NY","website":"http://www.environmentnewyork.org","members":"5000 - 9999"},"geometry":{"type":"Point","coordinates":[-73.983839,40.751993]}},{"type":"Feature","properties":{"organization":"Maryland Saltwater Sportsfishing Association","":"","state":"MD","region":"Pasadena, MD","website":"http://mssa.net/","members":"Unknown or Non Applicable"},"geometry":{"type":"Point","coordinates":[-76.518711,39.159877]}},{"type":"Feature","properties":{"organization":"West Virginia Citizen Action Group","":"","state":"WV","region":"Charleston, WV","website":"http://www.wvcag.org","members":"Unknown or Non Applicable"},"geometry":{"type":"Point","coordinates":[-81.620461,38.345884]}},{"type":"Feature","properties":{"organization":"Dorchester Citizens for Planned Growth","":"","state":"MD","region":"Cambridge, MD","website":"http://dcpgonline.org/","members":"0 - 499"},"geometry":{"type":"Point","coordinates":[-76.169827,38.558369]}},{"type":"Feature","properties":{"organization":"Friends of Beautiful Pendleton County","":"","state":"WV","region":"Franklin, WV","website":0,"members":"0 - 499"},"geometry":{"type":"Point","coordinates":[-79.331153,38.642894]}},{"type":"Feature","properties":{"organization":"Friends of the Appomattox River","":"","state":"VA","region":"Farmville, VA","website":"http://far-va.org/","members":"Unknown or Non Applicable"},"geometry":{"type":"Point","coordinates":[-78.39194,37.302096]}},{"type":"Feature","properties":{"organization":"Maryland Nonprofits","":"","state":"MD","region":"Baltimore, MD","website":"http://www.marylandnonprofits.org/Home.aspx","members":"Unknown or Non Applicable"},"geometry":{"type":"Point","coordinates":[-76.640309,39.332405]}},{"type":"Feature","properties":{"organization":"Conservation Voters of Pennsylvania","":"","state":"PA","region":"Philadelphia, PA","website":"http://conservationpa.org","members":"Unknown or Non Applicable"},"geometry":{"type":"Point","coordinates":[-75.174967,39.953186]}},{"type":"Feature","properties":{"organization":"Sidney Center Improvement Group, Inc.","":"","state":"NY","region":"Sidney Center, NY","website":"http://scigny.blogspot.com/","members":"0 - 499"},"geometry":{"type":"Point","coordinates":[-75.255728,42.290637]}},{"type":"Feature","properties":{"organization":"Shenandoah Riverkeeper","":"","state":"VA","region":"Berryville, VA","website":"http://www.waterkeeperschesapeake.com/about-us/resources/item/56-shenandoah-riverkeeper","members":"Unknown or Non Applicable"},"geometry":{"type":"Point","coordinates":[-77.982219,39.151771]}},{"type":"Feature","properties":{"organization":"Loudoun Wildlife Conservancy ","":"","state":"VA","region":"Purcellville, VA","website":"http://www.loudoun.gov","members":"1000 - 4999"},"geometry":{"type":"Point","coordinates":[-77.714715,39.136771]}},{"type":"Feature","properties":{"organization":"EcoLatinos","":"","state":"MD","region":"Bladensburg, MD","website":0,"members":"0 - 499"},"geometry":{"type":"Point","coordinates":[-76.932616,38.938237]}},{"type":"Feature","properties":{"organization":"Virginia Organizing","":"","state":"VA","region":"Charlottesville, VA","website":"http://virginia-organizing.org/","members":"10000 - 49999"},"geometry":{"type":"Point","coordinates":[-78.483898,38.038705]}},{"type":"Feature","properties":{"organization":"Capital Region Land Conservancy","":"","state":"VA","region":"Richmond, VA","website":"http://www.capitalregionland.org/","members":"0 - 499"},"geometry":{"type":"Point","coordinates":[-77.573404,37.521339]}},{"type":"Feature","properties":{"organization":"Lackawanna River Corridor Association","":"","state":"PA","region":"Scranton, PA","website":"http://www.lrca.org","members":"0 - 499"},"geometry":{"type":"Point","coordinates":[-75.655297,41.438241]}},{"type":"Feature","properties":{"organization":"The Environmental Justice Center of Chestnut Hill United Church","":"","state":"PA","region":"Philadelphia, PA","website":"http://www.chestnuthillumc.org","members":"Unknown or Non Applicable"},"geometry":{"type":"Point","coordinates":[-75.211539,40.078036]}},{"type":"Feature","properties":{"organization":"Friends of the Chemung River Watershed","":"","state":"NY","region":"Elmira, NY","website":"http://www.chemungriverfriends.org","members":"0 - 499"},"geometry":{"type":"Point","coordinates":[-76.807657,42.088008]}},{"type":"Feature","properties":{"organization":"Friends of Accotink Creek ","":"","state":"VA","region":"Falls Church, VA","website":"http://www.accotink.org","members":"0 - 499"},"geometry":{"type":"Point","coordinates":[-77.222341,38.870269]}},{"type":"Feature","properties":{"organization":"Nanticoke Watershed Preservation Group","":"","state":"DE","region":"Seaford, DE","website":"http://www.nanticokewpg.com","members":"0 - 499"},"geometry":{"type":"Point","coordinates":[-75.671567,38.586259]}},{"type":"Feature","properties":{"organization":"Dundalk Renaissance Corporation","":"","state":"MD","region":"Dundalk, MD","website":"http://www.dundalkusa.org","members":"Unknown or Non Applicable"},"geometry":{"type":"Point","coordinates":[-76.521815,39.257762]}},{"type":"Feature","properties":{"organization":"Pennsylvania Council of Churches","":"","state":"PA","region":"Harrisburg, PA","website":"http://www.pachurches.org","members":"0 - 499"},"geometry":{"type":"Point","coordinates":[-76.819671,40.283356]}},{"type":"Feature","properties":{"organization":"Friends of the Rappahannock","":"","state":"VA","region":"Fredericksburg, VA","website":"http://www.riverfriends.org","members":"1000 - 4999"},"geometry":{"type":"Point","coordinates":[-77.484719,38.316668]}},{"type":"Feature","properties":{"organization":"James River Association","":"","state":"VA","region":"Richmond, VA","website":"http://www.jrava.org","members":"5000 - 9999"},"geometry":{"type":"Point","coordinates":[-77.41512,37.516661]}},{"type":"Feature","properties":{"organization":"Sierra Club - Maryland Chapter","":"","state":"MD","region":"College Park, MD","website":"http://maryland.sierraclub.org/","members":"1000 - 4999"},"geometry":{"type":"Point","coordinates":[-76.938996,38.980398]}},{"type":"Feature","properties":{"organization":"Prince William Conservation Alliance","":"","state":"VA","region":"Woodbridge, VA","website":"http://www.pwconserve.org/","members":"0 - 499"},"geometry":{"type":"Point","coordinates":[-77.278474,38.675862]}},{"type":"Feature","properties":{"organization":"American Chestnut Land Trust","":"","state":"MD","region":"Prince Frederick, MD","website":"http://acltweb.org","members":"500 - 999"},"geometry":{"type":"Point","coordinates":[-76.618165,38.529052]}},{"type":"Feature","properties":{"organization":"Lancaster Farmland Trust ","":"","state":"PA","region":"Strasburg, PA","website":"http://www.lancasterfarmlandtrust.org/","members":"Unknown or Non Applicable"},"geometry":{"type":"Point","coordinates":[-76.189173,39.985065]}},{"type":"Feature","properties":{"organization":"Sparks-Glencoe Community Planning Council ","":"","state":"MD","region":"Sparks, MD","website":"http://www.sgcpc.org/","members":"0 - 499"},"geometry":{"type":"Point","coordinates":[-76.675922,39.549576]}},{"type":"Feature","properties":{"organization":"Corsica River Conservancy","":"","state":"MD","region":"Centreville, MD","website":"http://www.corsicariverconservancy.org/","members":"0 - 499"},"geometry":{"type":"Point","coordinates":[-76.062397,39.038383]}},{"type":"Feature","properties":{"organization":"Groundwork Anacostia River DC","":"","state":"DC","region":"Washington, DC","website":"http://groundworkdc.org/","members":"0 - 499"},"geometry":{"type":"Point","coordinates":[-76.9476,38.894414]}},{"type":"Feature","properties":{"organization":"Chesapeake BaySavers","":"","state":"MD","region":"Annapolis, MD","website":"http://www.chesapeakebaysavers.org","members":"0 - 499"},"geometry":{"type":"Point","coordinates":[-76.505945,38.989722]}},{"type":"Feature","properties":{"organization":"Penns Valley Conservation Association","":"","state":"PA","region":"Aaronsburg, PA","website":"http://www.pennsvalley.net/","members":"0 - 499"},"geometry":{"type":"Point","coordinates":[-77.453323,40.89979]}},{"type":"Feature","properties":{"organization":"Southeast CARE Coalition","":"","state":"VA","region":"Newport News, VA","website":"http://www.southeastcare.com/","members":"0 - 499"},"geometry":{"type":"Point","coordinates":[-76.421598,36.972239]}},{"type":"Feature","properties":{"organization":"Float Fishermen of Virginia","":"","state":"VA","region":"Roanoke, VA","website":"http://www.floatfishermen.org","members":"Unknown or Non Applicable"},"geometry":{"type":"Point","coordinates":[-79.891977,36.99764]}},{"type":"Feature","properties":{"organization":"Delaware Center for Horticulture","":"","state":"DE","region":"Wilmington, DE","website":"http://TheDCH.org","members":"1000 - 4999"},"geometry":{"type":"Point","coordinates":[-75.560408,39.758804]}},{"type":"Feature","properties":{"organization":"Savage River Watershed Association","":"","state":"MD","region":"Frostburg, MD","website":"http://www.savageriverwatershed.org","members":"0 - 499"},"geometry":{"type":"Point","coordinates":[-78.928359,39.658154]}},{"type":"Feature","properties":{"organization":"Audubon Society of Northern Virginia","":"","state":"VA","region":"Reston, VA","website":"http://www.audubonva.org","members":"1000 - 4999"},"geometry":{"type":"Point","coordinates":[-77.330973,38.951822]}},{"type":"Feature","properties":{"organization":"Maryland Citizens for Safe Energy","":"","state":"MD","region":"Baltimore, MD","website":"http://www.marylandforsafeenergy.org","members":"0 - 499"},"geometry":{"type":"Point","coordinates":[-76.626623,39.368178]}},{"type":"Feature","properties":{"organization":"Warm Springs Watershed Association ","":"","state":"WV","region":"Berkeley Springs, WV","website":"http://warmspringswatershed.webs.com/","members":"0 - 499"},"geometry":{"type":"Point","coordinates":[-78.227195,39.62699]}},{"type":"Feature","properties":{"organization":"Experience Learning","":"","state":"WV","region":"Circleville, WV","website":"http://mountain.org/where-we-work/appalachian/","members":"0 - 499"},"geometry":{"type":"Point","coordinates":[-79.568554,38.674506]}},{"type":"Feature","properties":{"organization":"Coastal Canoeists","":"","state":"VA","region":"Richmond, VA","website":"http://www.coastals.org/","members":"Unknown or Non Applicable"},"geometry":{"type":"Point","coordinates":[-77.527546,37.537443]}},{"type":"Feature","properties":{"organization":"All From One","":"","state":"VA","region":"Newport News, VA","website":0,"members":"0 - 499"},"geometry":{"type":"Point","coordinates":[-76.419459,36.978211]}},{"type":"Feature","properties":{"organization":"Protecting Our Waters","":"","state":"PA","region":"Philadelphia, PA","website":"http://protectingourwaters.com","members":"Unknown or Non Applicable"},"geometry":{"type":"Point","coordinates":[-75.217443,39.946232]}},{"type":"Feature","properties":{"organization":"Institute for Local Self-Reliance","":"","state":"DC","region":"Washington, DC","website":"http://www.islr.org","members":"0 - 499"},"geometry":{"type":"Point","coordinates":[-77.045201,38.914301]}},{"type":"Feature","properties":{"organization":"Butternut Valley Alliance","":"","state":"NY","region":"New Lisbon, NY","website":"http://butternutvalleyalliance.org/","members":"500 - 999"},"geometry":{"type":"Point","coordinates":[-75.205764,42.602903]}},{"type":"Feature","properties":{"organization":"Blue Heron Environmental Network","":"","state":"WV","region":"Hedgesville, WV","website":0,"members":"0 - 499"},"geometry":{"type":"Point","coordinates":[-78.005677,39.580436]}},{"type":"Feature","properties":{"organization":"Maryland Conservation Council","":"","state":"MD","region":"Baltimore, MD","website":"http://www.mdconservationcouncil.org/","members":"0 - 499"},"geometry":{"type":"Point","coordinates":[-76.665012,39.360918]}},{"type":"Feature","properties":{"organization":"Environmental Advocates of New York","":"","state":"NY","region":"Albany, NY","website":"http://www.eany.org/","members":"10000 - 49999"},"geometry":{"type":"Point","coordinates":[-73.764833,42.652231]}},{"type":"Feature","properties":{"organization":"Piedmont Environmental Council","":"","state":"VA","region":"Warrenton, VA","website":"http://www.pecva.org","members":"1000 - 4999"},"geometry":{"type":"Point","coordinates":[-77.793159,38.71417]}},{"type":"Feature","properties":{"organization":"Conodoguinet Creek Watershed Association","":"","state":"PA","region":"Mechanicsburg, PA","website":"http://www.cumberlandcd.com/~amcclain/ccwa/","members":"0 - 499"},"geometry":{"type":"Point","coordinates":[-76.997522,40.270175]}},{"type":"Feature","properties":{"organization":"Cacapon Institute","":"","state":"WV","region":"Great Cacapon, WV","website":"http://www.cacaponinstitute.org","members":"0 - 499"},"geometry":{"type":"Point","coordinates":[-78.361467,39.539315]}},{"type":"Feature","properties":{"organization":"Maryland Academy of Science at the Maryland Science Center","":"","state":"MD","region":"Baltimore, MD","website":"http://www.marylandsciencecenter.org","members":"50000 +"},"geometry":{"type":"Point","coordinates":[-76.611884,39.281256]}},{"type":"Feature","properties":{"organization":"Alliance for Sustainable Communities","":"","state":"MD","region":"Edgewater, MD","website":"http://www.beinginplace.org","members":"0 - 499 "},"geometry":{"type":"Point","coordinates":[-76.549762,38.926217]}},{"type":"Feature","properties":{"organization":"Peach Bottom Concerned Citizens Group","":"","state":"PA","region":"Delta , PA","website":0,"members":"Unknown or Non Applicable"},"geometry":{"type":"Point","coordinates":[-76.326625,39.727049]}},{"type":"Feature","properties":{"organization":"Alliance for Aquatic Resource Monitoring (ALLARM)","":"","state":"PA","region":"Carlisle, PA","website":"http://citizensci.com","members":"0 - 499"},"geometry":{"type":"Point","coordinates":[-77.197444,40.204127]}},{"type":"Feature","properties":{"organization":"Pennsylvania Council of Trout Unlimited","":"","state":"PA","region":"Bellefonte, PA","website":"http://www.patrout.org","members":"1000 - 4999"},"geometry":{"type":"Point","coordinates":[-77.778334,40.913394]}},{"type":"Feature","properties":{"organization":"Sassafras River Association","":"","state":"MD","region":"Georgetown, MD","website":"http://www.sassafrasriver.org/","members":"0 - 499"},"geometry":{"type":"Point","coordinates":[-75.883893,39.36614]}},{"type":"Feature","properties":{"organization":"Sierra Club - Pennsylvania Chapter","":"","state":"PA","region":"Harrisburg, PA","website":"http://pennsylvania.sierraclub.org/","members":"10000 - 49999"},"geometry":{"type":"Point","coordinates":[-77.008587,40.214256]}},{"type":"Feature","properties":{"organization":"Friends of Shenandoah River","":"","state":"VA","region":"Winchester, VA","website":"http://fosr.org/","members":"Unknown or Non Applicable"},"geometry":{"type":"Point","coordinates":[-78.158327,39.166019]}},{"type":"Feature","properties":{"organization":"Otsego Land Trust","":"","state":"NY","region":"Cooperstown, NY","website":"http://otsegolandtrust.org/","members":"1000 - 4999"},"geometry":{"type":"Point","coordinates":[-74.925263,42.700009]}},{"type":"Feature","properties":{"organization":"Eastern Shore Land Conservancy","":"","state":"MD","region":"Easton, MD","website":"http://www.eslc.org","members":"1000 - 4999"},"geometry":{"type":"Point","coordinates":[-76.075692,38.771613]}},{"type":"Feature","properties":{"organization":"Rockfish Valley Foundation","":"","state":"VA","region":"Nellysford, VA","website":"http://www.rockfishvalley.org","members":"Unknown or Non Applicable"},"geometry":{"type":"Point","coordinates":[-78.873365,37.889754]}},{"type":"Feature","properties":{"organization":"West Virginia Highlands Conservancy","":"","state":"WV","region":"Charleston, WV","website":"http://www.wvhighlands.org","members":"1000 - 4999"},"geometry":{"type":"Point","coordinates":[-81.65908,38.14183]}},{"type":"Feature","properties":{"organization":"Clean Bread and Cheese Creek","":"","state":"MD","region":"Dundalk, MD","website":"http://breadandcheesecreek.org/","members":"Unknown or Non Applicable"},"geometry":{"type":"Point","coordinates":[-76.502503,39.281884]}},{"type":"Feature","properties":{"organization":"Friends of the North Fork of the Shenandoah River","":"","state":"VA","region":"Woodstock, VA","website":"http://www.fnfsr.org","members":"0 - 499"},"geometry":{"type":"Point","coordinates":[-78.505842,38.881778]}},{"type":"Feature","properties":{"organization":"Severn River Association","":"","state":"MD","region":"Annapolis, MD","website":"http://www.severnriver.org/","members":"0 - 499"},"geometry":{"type":"Point","coordinates":[-76.49,38.979999]}},{"type":"Feature","properties":{"organization":"Mattawoman Watershed Society","":"","state":"MD","region":"Bryans Road, MD","website":"http://mattawomanwatershedsociety.org","members":"1000 - 4999"},"geometry":{"type":"Point","coordinates":[-77.085225,38.628676]}},{"type":"Feature","properties":{"organization":"PennEnvironment","":"","state":"PA","region":"Philadelphia, PA","website":"http://www.pennenvironment.org","members":"50000 +"},"geometry":{"type":"Point","coordinates":[-75.165276,39.949199]}},{"type":"Feature","properties":{"organization":"Talbot Preservation Alliance","":"","state":"MD","region":"Easton, MD","website":"http://www.talbotpreservation.org/","members":"0 - 499"},"geometry":{"type":"Point","coordinates":[-76.080489,38.778371]}},{"type":"Feature","properties":{"organization":"Sleepy Creek Watershed Association","":"","state":"WV","region":"Berkeley Springs, WV","website":"http://www.sleepycreekwatershedassociation.org/","members":"0 - 499"},"geometry":{"type":"Point","coordinates":[-78.270202,39.493803]}},{"type":"Feature","properties":{"organization":"Surfrider Foundation - DC Chapter","":"","state":"DC","region":"Washington, DC","website":"https://dc.surfrider.org/","members":"0 - 499"},"geometry":{"type":"Point","coordinates":[-77.419075,39.159867]}},{"type":"Feature","properties":{"organization":"Countryside Conservancy","":"","state":"PA","region":"LaPlume, PA","website":"http://www.countrysideconservancy.org  ","members":"Unknown or Non Applicable"},"geometry":{"type":"Point","coordinates":[-75.75527,41.556716]}},{"type":"Feature","properties":{"organization":"Friends of Sligo Creek","":"","state":"MD","region":"Takoma Park, MD","website":"http://www.fosc.org/","members":"500 - 999"},"geometry":{"type":"Point","coordinates":[-77.01,38.979999]}},{"type":"Feature","properties":{"organization":"Earth Conservation Corps","":"","state":"DC","region":"Washington, DC","website":"http://www.earthconservationcorps.org/","members":"0 - 499"},"geometry":{"type":"Point","coordinates":[-77.010663,38.872024]}},{"type":"Feature","properties":{"organization":"Western Clinton Sportsmen's Association","":"","state":"PA","region":"Renovo, PA","website":"http://www.wcsarenovo.org/","members":"1000 - 4999"},"geometry":{"type":"Point","coordinates":[-77.75082,41.326455]}},{"type":"Feature","properties":{"organization":"Chesapeake Climate Action Network","":"","state":"MD","region":"Takoma Park, MD","website":"http://www.ccan.org","members":"10000 - 49999"},"geometry":{"type":"Point","coordinates":[-77.014006,38.975287]}},{"type":"Feature","properties":{"organization":"Chapman Forest Foundation","":"","state":"MD","region":"Bryans Road, MD","website":0,"members":"0 - 499"},"geometry":{"type":"Point","coordinates":[-77.09098,38.655109]}},{"type":"Feature","properties":{"organization":"Virginia Aquarium & Marine Science Center","":"","state":"VA","region":"Virginia Beach, VA","website":"http://www.virginiaaquarium.com","members":"5000 - 9999"},"geometry":{"type":"Point","coordinates":[-75.983436,36.821355]}},{"type":"Feature","properties":{"organization":"Adkins Arboretum","":"","state":"MD","region":"Ridgely, MD","website":"http://www.adkinsarboretum.org/","members":"1000 - 4999"},"geometry":{"type":"Point","coordinates":[-75.88825,38.965967]}},{"type":"Feature","properties":{"organization":"Friends of the Middle River","":"","state":"VA","region":"Verona, VA","website":"http://www.friendsofthemiddleriver.org/","members":"0 - 499"},"geometry":{"type":"Point","coordinates":[-79.008361,38.202075]}},{"type":"Feature","properties":{"organization":"Blue Ridge Watershed Coalition","":"","state":"WV","region":"Jefferson , WV","website":"http://www.blueridgewatershed.org/","members":"0 - 499 "},"geometry":{"type":"Point","coordinates":[-77.797021,39.245647]}},{"type":"Feature","properties":{"organization":"Friends of Shenandoah Mountain","":"","state":"VA","region":"Harrisonburg, VA","website":"http://www.friendsofshenandoahmountain.org/","members":"0 - 499 "},"geometry":{"type":"Point","coordinates":[-78.868916,38.449569]}},{"type":"Feature","properties":{"organization":"Southern Maryland Audubon Society","":"","state":"MD","region":"Bryans Road, MD","website":"http://somdaudubon.org/","members":"Unknown or Non Applicable"},"geometry":{"type":"Point","coordinates":[-77.085226,38.628676]}},{"type":"Feature","properties":{"organization":"Citizens to Conserve and Restore Indian Creek","":"","state":"MD","region":"Greenbelt, MD","website":"http://ccric.org/","members":"0 - 499 "},"geometry":{"type":"Point","coordinates":[-76.90155029296875,38.97756007955202]}},{"type":"Feature","properties":{"organization":"Elk Creeks Watershed Association","":"","state":"PA","region":"Oxford, PA","website":0,"members":"0 - 499 "},"geometry":{"type":"Point","coordinates":[-75.978835,39.785386]}},{"type":"Feature","properties":{"organization":"Friends of the Nanticoke River","":"","state":"MD","region":"Nanticoke, MD","website":"http://www.friendsofthenanticoke.org/index.htm","members":"0 - 499 "},"geometry":{"type":"Point","coordinates":[-75.905567,38.272706]}}]}